[
  { "name": "Albany", "lat": 42.6526, "lng": -73.7562, "zip": "12207" },
  { "name": "Annapolis", "lat": 38.9784, "lng": -76.4922, "zip": "21401" },
  { "name": "Atlanta", "lat": 33.7490, "lng": -84.3880, "zip": "30303" },
  { "name": "Augusta", "lat": 44.3106, "lng": -69.7795, "zip": "04330" },
  { "name": "Austin", "lat": 30.2672, "lng": -97.7431, "zip": "78701" },
  { "name": "Baton Rouge", "lat": 30.4515, "lng": -91.1871, "zip": "70802" },
  { "name": "Bismarck", "lat": 46.8083, "lng": -100.7837, "zip": "58501" },
  { "name": "Boise", "lat": 43.6150, "lng": -116.2023, "zip": "83702" },
  { "name": "Boston", "lat": 42.3601, "lng": -71.0589, "zip": "02108" },
  { "name": "Carson City", "lat": 39.1638, "lng": -119.7674, "zip": "89701" },
  { "name": "Charleston", "lat": 38.3498, "lng": -81.6326, "zip": "25301" },
  { "name": "Cheyenne", "lat": 41.1400, "lng": -104.8202, "zip": "82001" },
  { "name": "Columbia", "lat": 34.0007, "lng": -81.0348, "zip": "29201" },
  { "name": "Columbus", "lat": 39.9612, "lng": -82.9988, "zip": "43215" },
  { "name": "Concord", "lat": 43.2081, "lng": -71.5376, "zip": "03301" },
  { "name": "Dover", "lat": 39.1582, "lng": -75.5244, "zip": "19901" },
  { "name": "Des Moines", "lat": 41.5868, "lng": -93.6250, "zip": "50309" },
  { "name": "Denver", "lat": 39.7392, "lng": -104.9903, "zip": "80202" },
  { "name": "Frankfort", "lat": 38.2009, "lng": -84.8733, "zip": "40601" },
  { "name": "Harrisburg", "lat": 40.2732, "lng": -76.8867, "zip": "17101" },
  { "name": "Hartford", "lat": 41.7637, "lng": -72.6851, "zip": "06103" },
  { "name": "Helena", "lat": 46.5891, "lng": -112.0391, "zip": "59601" },
  { "name": "Honolulu", "lat": 21.3069, "lng": -157.8583, "zip": "96813" },
  { "name": "Indianapolis", "lat": 39.7684, "lng": -86.1581, "zip": "46204" },
  { "name": "Jackson", "lat": 32.2988, "lng": -90.1848, "zip": "39201" },
  { "name": "Jefferson City", "lat": 38.5767, "lng": -92.1735, "zip": "65101" },
  { "name": "Lansing", "lat": 42.7325, "lng": -84.5555, "zip": "48933" },
  { "name": "Little Rock", "lat": 34.7465, "lng": -92.2896, "zip": "72201" },
  { "name": "Lincoln", "lat": 40.8136, "lng": -96.7026, "zip": "68508" },
  { "name": "Madison", "lat": 43.0731, "lng": -89.4012, "zip": "53703" },
  { "name": "Montgomery", "lat": 32.3792, "lng": -86.3077, "zip": "36104" },
  { "name": "Montpelier", "lat": 44.2601, "lng": -72.5754, "zip": "05602" },
  { "name": "Nashville", "lat": 36.1627, "lng": -86.7816, "zip": "37219" },
  { "name": "Oklahoma City", "lat": 35.4676, "lng": -97.5164, "zip": "73102" },
  { "name": "Olympia", "lat": 47.0379, "lng": -122.9007, "zip": "98501" },
  { "name": "Phoenix", "lat": 33.4484, "lng": -112.0740, "zip": "85004" },
  { "name": "Pierre", "lat": 44.3683, "lng": -100.3510, "zip": "57501" },
  { "name": "Providence", "lat": 41.8240, "lng": -71.4128, "zip": "02903" },
  { "name": "Raleigh", "lat": 35.7796, "lng": -78.6382, "zip": "27601" },
  { "name": "Richmond", "lat": 37.5407, "lng": -77.4360, "zip": "23219" },
  { "name": "Sacramento", "lat": 38.5816, "lng": -121.4944, "zip": "95814" },
  { "name": "St. Paul", "lat": 44.9537, "lng": -93.0900, "zip": "55102" },
  { "name": "Salem", "lat": 44.9429, "lng": -123.0351, "zip": "97301" },
  { "name": "Salt Lake City", "lat": 40.7608, "lng": -111.8910, "zip": "84111" },
  { "name": "Santa Fe", "lat": 35.6869, "lng": -105.9378, "zip": "87501" },
  { "name": "Springfield", "lat": 39.7983, "lng": -89.6540, "zip": "62701" },
  { "name": "Tallahassee", "lat": 30.4383, "lng": -84.2807, "zip": "32301" },
  { "name": "Topeka", "lat": 39.0489, "lng": -95.6780, "zip": "66603" },
  { "name": "Trenton", "lat": 40.2206, "lng": -74.7597, "zip": "08608" },
  { "name": "Washington, D.C.", "lat": 38.9072, "lng": -77.0369, "zip": "20001" }
]